CDRadio,181943,26.810825,db,8816,177,3,$GNGGA,101940.00,2234.12606,N,11356.22208,E,5,09,0.94,70.3,M,-2.7,M,2.0,0462*45

CDRadio,181944,26.023091,db,8839,177,3,$GNGGA,101941.00,2234.22604,N,11356.25209,E,5,09,0.94,70.4,M,-2.7,M,2.0,0462*40

CDRadio,181945,29.550701,db,8862,177,3,$GNGGA,101942.00,2234.22603,N,11356.25211,E,5,09,0.94,70.4,M,-2.7,M,3.0,0462*4C

CDRadio,181946,34.155780,db,8885,177,3,$GNGGA,101943.00,2234.22604,N,11356.25213,E,5,09,0.94,70.5,M,-2.7,M,2.0,0462*48

CDRadio,181948,29.996889,db,8931,177,3,$GNGGA,101945.00,2234.22609,N,11356.25214,E,5,09,0.94,70.6,M,-2.7,M,2.0,0462*47

CDRadio,181950,28.386386,db,8954,177,3,$GNGGA,101947.00,2234.22607,N,11356.27215,E,5,09,0.94,70.6,M,-2.7,M,2.0,0462*4A

CDRadio,181951,29.611363,db,8977,177,3,$GNGGA,101948.00,2234.22606,N,11356.25216,E,5,09,0.94,70.6,M,-2.7,M,2.0,0462*47

CDRadio,181953,29.225203,db,9023,177,3,$GNGGA,101950.00,2234.22610,N,11356.25216,E,5,09,0.94,70.6,M,-2.7,M,2.0,0462*49

CDRadio,181954,28.427749,db,9046,177,3,$GNGGA,101951.00,2234.25608,N,11356.23216,E,5,09,0.94,70.6,M,-2.7,M,3.0,0462*40

CDRadio,181955,30.898724,db,9069,177,3,$GNGGA,101952.00,2234.22606,N,11356.25216,E,5,09,0.94,70.5,M,-2.7,M,2.0,0462*4F

CDRadio,181957,28.699710,db,9092,177,3,$GNGGA,101954.00,2234.25609,N,11356.21215,E,5,09,0.94,70.4,M,-2.7,M,2.0,0462*44

CDRadio,181958,27.361247,db,9115,177,3,$GNGGA,101955.00,2234.22612,N,11356.25213,E,5,09,0.94,70.4,M,-2.7,M,2.0,0462*49

CDRadio,181959,26.091390,db,9138,177,3,$GNGGA,101956.00,2234.22610,N,11356.25212,E,5,09,0.94,70.3,M,-2.7,M,2.0,0462*4E

CDRadio,182000,30.356263,db,9161,177,3,$GNGGA,101957.00,2234.22610,N,11356.25211,E,5,09,0.94,70.3,M,-2.7,M,2.0,0462*4C

CDRadio,182001,27.966966,db,9184,177,3,$GNGGA,101958.00,2234.22610,N,11356.25210,E,5,09,0.94,70.2,M,-2.7,M,2.0,0462*43

CDRadio,182002,30.217470,db,9184,177,3,$GNGGA,101959.00,2234.22610,N,11356.25207,E,5,09,0.94,70.2,M,-2.7,M,2.0,0462*44

CDRadio,182003,30.415371,db,9207,177,3,$GNGGA,102000.00,2234.22609,N,11356.25206,E,5,09,0.94,70.2,M,-2.7,M,2.0,0462*4B

CDRadio,182004,31.513863,db,9230,177,3,$GNGGA,102001.00,2234.22608,N,11356.25205,E,5,09,0.94,70.2,M,-2.7,M,2.0,0462*48

CDRadio,182005,31.621184,db,9253,177,3,$GNGGA,102002.00,2234.22608,N,11356.25204,E,5,09,0.94,70.1,M,-2.7,M,2.0,0462*49

CDRadio,182006,28.682628,db,9276,177,3,$GNGGA,102003.00,2234.22607,N,11356.25202,E,5,09,0.94,70.1,M,-2.7,M,2.0,0462*41

CDRadio,182007,27.786602,db,9299,177,3,$GNGGA,102004.00,2234.22607,N,11356.25200,E,5,09,0.94,70.1,M,-2.7,M,2.0,0462*44

CDRadio,182008,28.100781,db,9322,177,3,$GNGGA,102005.00,2234.22607,N,11356.25199,E,2,09,0.94,70.0,M,-2.7,M,2.0,0462*40

CDRadio,182010,28.274283,db,9345,177,3,$GNGGA,102007.00,2234.22609,N,11356.25196,E,2,09,0.94,69.9,M,-2.7,M,2.0,0462*42

CDRadio,182011,29.912731,db,9368,177,3,$GNGGA,102008.00,2234.22609,N,11356.25194,E,2,09,0.94,69.9,M,-2.7,M,2.0,0462*4F

CDRadio,182012,29.611915,db,9391,177,3,$GNGGA,102009.00,2234.22610,N,11356.25193,E,2,09,0.94,69.9,M,-2.7,M,2.0,0462*41

CDRadio,182013,29.405294,db,9414,177,3,$GNGGA,102010.00,2234.22610,N,11356.25190,E,2,09,0.94,69.8,M,-2.7,M,2.0,0462*4B

CDRadio,182014,23.801104,db,9437,177,3,$GNGGA,102011.00,2234.22612,N,11356.25190,E,2,09,0.94,69.8,M,-2.7,M,2.0,0462*48

CDRadio,182015,31.706863,db,9437,177,3,$GNGGA,102012.00,2234.22614,N,11356.25186,E,5,09,1.28,69.7,M,-2.7,M,2.0,0462*44

CDRadio,182016,29.233656,db,9460,177,3,$GNGGA,102013.00,2234.22615,N,11356.25182,E,5,09,1.28,69.6,M,-2.7,M,2.0,0462*41

CDRadio,182017,29.965588,db,9483,177,3,$GNGGA,102014.00,2234.22616,N,11356.25181,E,5,09,1.28,69.5,M,-2.7,M,2.0,0462*45

CDRadio,182018,30.886226,db,9506,177,3,$GNGGA,102015.00,2234.22616,N,11356.25180,E,5,09,1.28,69.5,M,-2.7,M,2.0,0462*45

CDRadio,182019,25.104696,db,9529,177,3,$GNGGA,102016.00,2234.22615,N,11356.25180,E,5,09,1.28,69.4,M,-2.7,M,2.0,0462*44

CDRadio,182020,30.041943,db,9552,177,3,$GNGGA,102017.00,2234.22615,N,11356.25180,E,5,09,1.28,69.4,M,-2.7,M,2.0,0462*45

CDRadio,182021,28.680049,db,9575,177,3,$GNGGA,102018.00,2234.22614,N,11356.25180,E,5,09,1.28,69.4,M,-2.7,M,2.0,0462*4B

CDRadio,182022,30.966513,db,9575,177,3,$GNGGA,102019.00,2234.22614,N,11356.25181,E,5,09,1.28,69.4,M,-2.7,M,2.0,0462*4B

CDRadio,182023,26.143500,db,9598,177,3,$GNGGA,102020.00,2234.22614,N,11356.25182,E,5,09,1.28,69.4,M,-2.7,M,2.0,0462*42

CDRadio,182024,33.703771,db,9621,177,3,$GNGGA,102021.00,2234.22614,N,11356.25181,E,5,09,1.28,69.5,M,-2.7,M,2.0,0462*41

CDRadio,182025,34.594640,db,9644,177,3,$GNGGA,102022.00,2234.22615,N,11356.25180,E,5,09,1.28,69.5,M,-2.7,M,2.0,0462*42

CDRadio,182027,31.101385,db,9690,177,3,$GNGGA,102024.00,2234.22615,N,11356.25181,E,5,09,1.28,69.5,M,-2.7,M,2.0,0462*45

CDRadio,182028,27.230383,db,9690,177,3,$GNGGA,102025.00,2234.22615,N,11356.25182,E,5,09,1.28,69.5,M,-2.7,M,2.0,0462*47

CDRadio,182029,28.297632,db,9713,177,3,$GNGGA,102026.00,2234.22615,N,11356.25182,E,5,09,0.94,69.4,M,-2.7,M,2.0,0462*43

CDRadio,182030,29.160529,db,9736,177,3,$GNGGA,102027.00,2234.22615,N,11356.25182,E,5,09,0.94,69.5,M,-2.7,M,2.0,0462*43

CDRadio,182031,27.193667,db,9759,177,3,$GNGGA,102028.00,2234.22614,N,11356.25182,E,5,09,0.94,69.5,M,-2.7,M,2.0,0462*4D

CDRadio,182032,26.072734,db,9782,177,3,$GNGGA,102029.00,2234.22615,N,11356.25182,E,5,09,0.94,69.4,M,-2.7,M,2.0,0462*4C

CDRadio,182033,25.258226,db,9805,177,3,$GNGGA,102030.00,2234.22615,N,11356.25183,E,5,09,0.94,69.4,M,-2.7,M,2.0,0462*45

CDRadio,182034,23.256526,db,9805,177,3,$GNGGA,102031.00,2234.22615,N,11356.25183,E,5,09,0.94,69.4,M,-2.7,M,2.0,0462*44

CDRadio,182035,29.014515,db,9828,177,3,$GNGGA,102032.00,2234.22615,N,11356.25182,E,5,09,0.94,69.4,M,-2.7,M,2.0,0462*46

CDRadio,182036,28.024076,db,9851,177,3,$GNGGA,102033.00,2234.22615,N,11356.25182,E,5,09,0.94,69.4,M,-2.7,M,2.0,0462*47

CDRadio,182037,26.871959,db,9874,177,3,$GNGGA,102034.00,2234.22616,N,11356.25181,E,5,09,0.94,69.4,M,-2.7,M,2.0,0462*40

CDRadio,182038,31.155909,db,9897,177,3,$GNGGA,102035.00,2234.22615,N,11356.25182,E,5,09,0.94,69.4,M,-2.7,M,2.0,0462*41

CDRadio,182039,29.567273,db,9920,177,3,$GNGGA,102036.00,2234.22615,N,11356.25183,E,5,09,0.94,69.4,M,-2.7,M,2.0,0462*43

CDRadio,182040,30.078490,db,9943,177,3,$GNGGA,102037.00,2234.22616,N,11356.25183,E,5,09,0.94,69.4,M,-2.7,M,2.0,0462*41

CDRadio,182041,26.899684,db,9943,177,3,$GNGGA,102038.00,2234.22616,N,11356.25183,E,5,09,0.94,69.4,M,-2.7,M,2.0,0462*4E

CDRadio,182042,30.718182,db,9966,177,3,$GNGGA,102039.00,2234.22616,N,11356.25183,E,5,09,0.94,69.4,M,-2.7,M,2.0,0462*4F

CDRadio,182043,31.090644,db,9989,177,3,$GNGGA,102040.00,2234.22615,N,11356.25184,E,5,09,0.94,69.4,M,-2.7,M,2.0,0462*45

CDRadio,182044,26.190710,db,10012,177,3,$GNGGA,102041.00,2234.22615,N,11356.25184,E,5,09,0.94,69.4,M,-2.7,M,2.0,0462*44

CDRadio,182045,26.852167,db,10035,177,3,$GNGGA,102042.00,2234.22615,N,11356.25183,E,5,09,0.94,69.4,M,-2.7,M,2.0,0462*40

CDRadio,182046,22.653880,db,10058,177,3,$GNGGA,102043.00,2234.22615,N,11356.25183,E,5,09,0.94,69.4,M,-2.7,M,2.0,0462*41

CDRadio,182047,29.151100,db,10058,177,3,$GNGGA,102044.00,2234.22615,N,11356.25184,E,5,09,0.94,69.4,M,-2.7,M,2.0,0462*41

CDRadio,182048,26.118625,db,10081,177,3,$GNGGA,102045.00,2234.22615,N,11356.25184,E,5,09,0.94,69.4,M,-2.7,M,2.0,0462*40

CDRadio,182049,30.791315,db,10104,177,3,$GNGGA,102046.00,2234.22615,N,11356.25184,E,5,09,0.94,69.4,M,-2.7,M,2.0,0462*43

CDRadio,182050,31.115641,db,10127,177,3,$GNGGA,102047.00,2234.22614,N,11356.25185,E,5,09,0.94,69.4,M,-2.7,M,2.0,0462*42

CDRadio,182051,29.631444,db,10150,177,3,$GNGGA,102048.00,2234.22614,N,11356.25185,E,5,09,0.94,69.4,M,-2.7,M,3.0,0462*4C

CDRadio,182052,27.784394,db,10173,177,3,$GNGGA,102049.00,2234.22615,N,11356.25185,E,5,09,0.94,69.4,M,-2.7,M,2.0,0462*4D

CDRadio,182053,30.430281,db,10173,177,3,$GNGGA,102050.00,2234.22615,N,11356.25185,E,5,09,0.94,69.4,M,-2.7,M,2.0,0462*45

CDRadio,182054,28.375334,db,10196,177,3,$GNGGA,102051.00,2234.22615,N,11356.25186,E,5,09,0.94,69.4,M,-2.7,M,2.0,0462*47

CDRadio,182055,29.816973,db,10219,177,3,$GNGGA,102052.00,2234.22615,N,11356.25185,E,5,09,0.94,69.4,M,-2.7,M,2.0,0462*47

CDRadio,182056,29.600549,db,10242,177,3,$GNGGA,102053.00,2234.22616,N,11356.25185,E,5,09,0.94,69.4,M,-2.7,M,2.0,0462*45

CDRadio,182057,27.693672,db,10265,177,3,$GNGGA,102054.00,2234.22615,N,11356.25185,E,5,09,0.94,69.4,M,-2.7,M,2.0,0462*41

CDRadio,182058,28.695767,db,10288,177,3,$GNGGA,102055.00,2234.22614,N,11356.25186,E,5,09,0.94,69.4,M,-2.7,M,2.0,0462*42

CDRadio,182059,29.711009,db,10311,177,3,$GNGGA,102056.00,2234.22614,N,11356.25186,E,5,09,0.94,69.4,M,-2.7,M,2.0,0462*41

CDRadio,182100,29.608971,db,10311,177,3,$GNGGA,102057.00,2234.22614,N,11356.25186,E,5,09,0.94,69.4,M,-2.7,M,2.0,0462*40

CDRadio,182101,29.531607,db,10334,177,3,$GNGGA,102058.00,2234.22614,N,11356.25185,E,5,09,0.94,69.4,M,-2.7,M,2.0,0462*4C

CDRadio,182102,28.836006,db,10357,177,3,$GNGGA,102059.00,2234.22614,N,11356.25186,E,5,09,0.94,69.4,M,-2.7,M,2.0,0462*4E

CDRadio,182103,31.282439,db,10380,177,3,$GNGGA,102100.00,2234.22614,N,11356.25188,E,5,08,1.28,69.3,M,-2.7,M,2.0,0462*4D

CDRadio,182104,31.078042,db,10403,177,3,$GNGGA,102101.00,2234.22613,N,11356.25187,E,5,08,1.28,69.4,M,-2.7,M,2.0,0462*43

CDRadio,182105,28.563105,db,10426,177,3,$GNGGA,102102.00,2234.22613,N,11356.25187,E,5,08,1.28,69.3,M,-2.7,M,2.0,0462*47

CDRadio,182106,27.253610,db,10426,177,3,$GNGGA,102103.00,2234.22613,N,11356.25187,E,5,08,1.28,69.3,M,-2.7,M,2.0,0462*46

CDRadio,182107,27.469718,db,10449,177,3,$GNGGA,102104.00,2234.22613,N,11356.25187,E,5,08,1.28,69.3,M,-2.7,M,2.0,0462*41

CDRadio,182108,24.890340,db,10472,177,3,$GNGGA,102105.00,2234.22614,N,11356.25187,E,5,08,1.28,69.3,M,-2.7,M,3.0,0462*46

CDRadio,182109,25.747872,db,10495,177,3,$GNGGA,102106.00,2234.22614,N,11356.25187,E,5,08,1.28,69.3,M,-2.7,M,2.0,0462*44

CDRadio,182111,31.043816,db,10541,177,3,$GNGGA,102108.00,2234.22615,N,11356.25187,E,5,08,1.28,69.3,M,-2.7,M,2.0,0462*4B

CDRadio,182112,27.913316,db,10564,177,3,$GNGGA,102109.00,2234.22615,N,11356.25188,E,5,08,1.28,69.3,M,-2.7,M,2.0,0462*45

CDRadio,182113,33.512983,db,10564,177,3,$GNGGA,102110.00,2234.22615,N,11356.25188,E,5,08,1.28,69.3,M,-2.7,M,2.0,0462*4D

CDRadio,182114,33.141823,db,10587,177,3,$GNGGA,102111.00,2234.22614,N,11356.25189,E,5,08,1.28,69.3,M,-2.7,M,2.0,0462*4C

CDRadio,182115,29.558270,db,10610,177,3,$GNGGA,102112.00,2234.22614,N,11356.25188,E,5,08,1.28,69.3,M,-2.7,M,2.0,0462*4E

CDRadio,182116,25.860867,db,10633,177,3,$GNGGA,102113.00,2234.22613,N,11356.25188,E,5,08,1.28,69.3,M,-2.7,M,2.0,0462*48

CDRadio,182118,34.865531,db,10679,177,3,$GNGGA,102115.00,2234.22613,N,11356.25189,E,5,08,1.28,69.3,M,-2.7,M,2.0,0462*4F

CDRadio,182119,29.280792,db,10702,177,3,$GNGGA,102116.00,2234.22613,N,11356.25189,E,5,08,1.28,69.3,M,-2.7,M,2.0,0462*4C

CDRadio,182121,23.290093,db,10725,177,3,$GNGGA,102118.00,2234.22613,N,11356.25190,E,5,08,1.28,69.3,M,-2.7,M,2.0,0462*4A

CDRadio,182122,34.016365,db,10748,177,3,$GNGGA,102119.00,2234.22613,N,11356.25190,E,5,08,1.28,69.2,M,-2.7,M,2.0,0462*4A

CDRadio,182123,29.613976,db,10771,177,3,$GNGGA,102120.00,2234.22613,N,11356.25192,E,5,08,1.28,69.2,M,-2.7,M,2.0,0462*42

CDRadio,182124,30.782887,db,10794,177,3,$GNGGA,102121.00,2234.22613,N,11356.25192,E,5,08,1.28,69.2,M,-2.7,M,2.0,0462*43

CDRadio,182125,27.452478,db,10817,177,3,$GNGGA,102122.00,2234.22613,N,11356.25191,E,5,08,1.28,69.2,M,-2.7,M,2.0,0462*43

CDRadio,182126,30.069097,db,10817,177,3,$GNGGA,102123.00,2234.22613,N,11356.25190,E,5,08,1.28,69.2,M,-2.7,M,2.0,0462*43

CDRadio,182127,29.476860,db,10840,177,3,$GNGGA,102124.00,2234.22613,N,11356.25191,E,5,08,1.28,69.2,M,-2.7,M,2.0,0462*45

CDRadio,182128,30.447649,db,10863,177,3,$GNGGA,102125.00,2234.22612,N,11356.25192,E,5,08,1.28,69.2,M,-2.7,M,2.0,0462*46

CDRadio,182129,30.998406,db,10886,177,3,$GNGGA,102126.00,2234.22612,N,11356.25192,E,5,08,1.28,69.2,M,-2.7,M,2.0,0462*45

CDRadio,182131,30.649308,db,10932,177,3,$GNGGA,102128.00,2234.22612,N,11356.25193,E,5,08,1.28,69.2,M,-2.7,M,2.0,0462*4A

CDRadio,182132,30.872002,db,10932,177,3,$GNGGA,102129.00,2234.22612,N,11356.25192,E,5,08,1.28,69.2,M,-2.7,M,2.0,0462*4A

CDRadio,182133,30.600175,db,10955,177,3,$GNGGA,102130.00,2234.22612,N,11356.25193,E,5,08,1.28,69.2,M,-2.7,M,2.0,0462*43

CDRadio,182134,29.009672,db,10978,177,3,$GNGGA,102131.00,2234.22612,N,11356.25194,E,5,08,1.28,69.2,M,-2.7,M,3.0,0462*44

CDRadio,182135,30.865026,db,11001,177,3,$GNGGA,102132.00,2234.22612,N,11356.25193,E,5,08,1.28,69.2,M,-2.7,M,2.0,0462*41

CDRadio,182136,27.394003,db,11024,177,3,$GNGGA,102133.00,2234.22612,N,11356.25192,E,5,08,1.28,69.2,M,-2.7,M,2.0,0462*41

CDRadio,182137,33.733950,db,11047,177,3,$GNGGA,102134.00,2234.22613,N,11356.25193,E,5,08,1.28,69.2,M,-2.7,M,2.0,0462*46

CDRadio,182139,29.608051,db,11070,177,3,$GNGGA,102136.00,2234.22612,N,11356.25194,E,5,08,1.28,69.2,M,-2.7,M,2.0,0462*42

CDRadio,182141,31.151645,db,11116,177,3,$GNGGA,102138.00,2234.22612,N,11356.25194,E,5,08,1.28,69.1,M,-2.7,M,2.0,0462*4F

CDRadio,182142,29.799203,db,11139,177,3,$GNGGA,102139.00,2234.22612,N,11356.25195,E,5,08,1.28,69.1,M,-2.7,M,2.0,0462*4F

CDRadio,182144,25.675471,db,11185,177,3,$GNGGA,102141.00,2234.22613,N,11356.25196,E,5,08,1.28,69.1,M,-2.7,M,2.0,0462*42

CDRadio,182145,29.211801,db,11185,177,3,$GNGGA,102142.00,2234.22611,N,11356.25196,E,2,08,1.28,69.1,M,-2.7,M,3.0,0462*45

CDRadio,182146,33.620807,db,11208,177,3,$GNGGA,102143.00,2234.22611,N,11356.25196,E,2,08,1.28,69.1,M,-2.7,M,2.0,0462*45

CDRadio,182147,30.955207,db,11231,177,3,$GNGGA,102144.00,2234.22611,N,11356.25196,E,2,08,1.28,69.1,M,-2.7,M,3.0,0462*43

CDRadio,182148,28.806971,db,11254,177,3,$GNGGA,102145.00,2234.22609,N,11356.25195,E,2,08,1.46,69.1,M,-2.7,M,2.0,0462*41

CDRadio,182150,30.490466,db,11300,177,3,$GNGGA,102147.00,2234.22608,N,11356.25195,E,5,08,1.36,69.1,M,-2.7,M,2.0,0462*42

CDRadio,182151,28.424730,db,11300,177,3,$GNGGA,102148.00,2234.22608,N,11356.25195,E,5,08,1.36,69.1,M,-2.7,M,3.0,0462*4C

CDRadio,182152,34.195057,db,11323,177,3,$GNGGA,102149.00,2234.22608,N,11356.25196,E,5,08,1.36,69.1,M,-2.7,M,3.0,0462*4E

CDRadio,182153,33.906807,db,11346,177,3,$GNGGA,102150.00,2234.22608,N,11356.25196,E,5,08,1.36,69.1,M,-2.7,M,2.0,0462*47

CDRadio,182154,30.022628,db,11369,177,3,$GNGGA,102151.00,2234.22608,N,11356.25197,E,5,08,1.36,69.1,M,-2.7,M,2.0,0462*47

CDRadio,182155,30.861540,db,11392,177,3,$GNGGA,102152.00,2234.22608,N,11356.25197,E,5,08,1.36,69.1,M,-2.7,M,2.0,0462*44

CDRadio,182156,30.066188,db,11415,177,3,$GNGGA,102153.00,2234.22609,N,11356.25197,E,5,09,1.23,69.1,M,-2.7,M,2.0,0462*41

CDRadio,182157,29.707733,db,11438,177,3,$GNGGA,102154.00,2234.22602,N,11356.25194,E,5,09,1.23,69.0,M,-2.7,M,2.0,0462*4F

CDRadio,182158,31.516016,db,11438,177,3,$GNGGA,102155.00,2234.22602,N,11356.25193,E,5,11,1.01,69.0,M,-2.7,M,2.0,0462*40

CDRadio,182159,28.967945,db,11461,177,3,$GNGGA,102156.00,2234.22602,N,11356.25194,E,5,11,0.84,69.0,M,-2.7,M,2.0,0462*48

CDRadio,182200,30.429472,db,11484,177,3,$GNGGA,102157.00,2234.22603,N,11356.25195,E,5,10,1.01,69.0,M,-2.7,M,2.0,0462*44

CDRadio,182201,31.439092,db,11507,177,3,$GNGGA,102158.00,2234.22601,N,11356.25196,E,5,10,1.01,69.0,M,-2.7,M,2.0,0462*4A

CDRadio,182202,29.271514,db,11530,177,3,$GNGGA,102159.00,2234.22597,N,11356.25197,E,5,10,1.23,69.0,M,-2.7,M,2.0,0462*46

CDRadio,182203,28.596572,db,11553,177,3,$GNGGA,102200.00,2234.22594,N,11356.25197,E,5,10,1.23,69.0,M,-2.7,M,2.0,0462*4A

CDRadio,182204,26.949657,db,11553,177,3,$GNGGA,102201.00,2234.22594,N,11356.25197,E,5,11,0.88,69.0,M,-2.7,M,2.0,0462*4A

CDRadio,182205,30.753580,db,11576,177,3,$GNGGA,102202.00,2234.22594,N,11356.25197,E,5,11,0.88,69.0,M,-2.7,M,2.0,0462*49

CDRadio,182206,29.943229,db,11599,177,3,$GNGGA,102203.00,2234.22592,N,11356.25197,E,5,11,0.88,69.0,M,-2.7,M,3.0,0462*4F

CDRadio,182207,29.206882,db,11622,177,3,$GNGGA,102204.00,2234.22588,N,11356.25198,E,5,11,0.88,69.0,M,-2.7,M,2.0,0462*4D

CDRadio,182208,28.014609,db,11645,177,3,$GNGGA,102205.00,2234.22584,N,11356.25199,E,5,11,0.88,69.0,M,-2.7,M,2.0,0462*41

CDRadio,182209,30.372599,db,11668,177,3,$GNGGA,102206.00,2234.22582,N,11356.25201,E,5,10,1.23,69.0,M,-2.7,M,2.0,0462*47

CDRadio,182211,28.834862,db,11691,177,3,$GNGGA,102208.00,2234.22579,N,11356.25202,E,5,11,0.88,69.1,M,-2.7,M,2.0,0462*4E

CDRadio,182212,31.090775,db,11714,177,3,$GNGGA,102209.00,2234.22578,N,11356.25203,E,5,10,1.23,69.1,M,-2.7,M,3.0,0462*4F

CDRadio,182213,28.038682,db,11737,177,3,$GNGGA,102210.00,2234.22575,N,11356.25204,E,5,10,1.23,69.1,M,-2.7,M,3.0,0462*4D

CDRadio,182215,29.311848,db,11783,177,3,$GNGGA,102212.00,2234.22574,N,11356.25204,E,5,10,1.23,69.1,M,-2.7,M,2.0,0462*4F

CDRadio,182215,29.311848,db,11783,177,3,$GNGGA,102212.00,2234.22574,N,11356.25204,E,5,10,1.23,69.1,M,-2.7,M,2.0,0462*4F

CDRadio,182216,28.525641,db,11806,177,3,$GNGGA,102213.00,2234.22574,N,11356.25204,E,5,10,1.23,69.1,M,-2.7,M,2.0,0462*4E

CDRadio,182217,30.683136,db,11806,177,3,$GNGGA,102214.00,2234.22574,N,11356.25203,E,5,10,1.23,69.0,M,-2.7,M,2.0,0462*4F

CDRadio,182218,28.805663,db,11829,177,3,$GNGGA,102215.00,2234.22573,N,11356.25202,E,5,10,1.23,68.9,M,-2.7,M,2.0,0462*40

CDRadio,182219,29.915818,db,11852,177,3,$GNGGA,102216.00,2234.22573,N,11356.25201,E,5,10,1.23,68.9,M,-2.7,M,2.0,0462*40

CDRadio,182220,29.265358,db,11875,177,3,$GNGGA,102217.00,2234.22572,N,11356.25199,E,5,10,1.23,68.8,M,-2.7,M,2.0,0462*43

CDRadio,182221,33.583399,db,11898,177,3,$GNGGA,102218.00,2234.22573,N,11356.25196,E,5,10,1.23,68.7,M,-2.7,M,2.0,0462*4D

CDRadio,182222,29.750075,db,11921,177,3,$GNGGA,102219.00,2234.22576,N,11356.25194,E,5,10,1.23,68.6,M,-2.7,M,2.0,0462*4A

CDRadio,182223,29.037808,db,11921,177,3,$GNGGA,102220.00,2234.22577,N,11356.25191,E,5,10,1.23,68.4,M,-2.7,M,2.0,0462*46

CDRadio,182225,29.052325,db,11967,177,3,$GNGGA,102222.00,2234.22572,N,11356.25186,E,5,10,1.23,68.2,M,-2.7,M,2.0,0462*41

CDRadio,182225,27.955614,db,11967,177,3,$GNGGA,102222.00,2234.22572,N,11356.25186,E,5,10,1.23,68.2,M,-2.7,M,2.0,0462*41

CDRadio,182226,28.432792,db,11990,177,3,$GNGGA,102223.00,2234.22570,N,11356.25182,E,5,10,1.23,68.0,M,-2.7,M,2.0,0462*44

CDRadio,182227,27.964987,db,12013,177,3,$GNGGA,102224.00,2234.22569,N,11356.25179,E,5,10,1.23,67.9,M,-2.7,M,3.0,0462*48

CDRadio,182228,28.956503,db,12036,177,3,$GNGGA,102225.00,2234.22569,N,11356.25177,E,5,10,1.23,67.7,M,-2.7,M,2.0,0462*48

CDRadio,182230,30.705398,db,12059,177,3,$GNGGA,102227.00,2234.22568,N,11356.25168,E,5,10,1.23,67.4,M,-2.7,M,2.0,0462*46

CDRadio,182231,29.667189,db,12082,177,3,$GNGGA,102228.00,2234.22568,N,11356.25164,E,5,10,1.23,67.1,M,-2.7,M,2.0,0462*40

CDRadio,182233,29.358589,db,12128,177,3,$GNGGA,102230.00,2234.22569,N,11356.25154,E,5,10,1.23,66.7,M,-2.7,M,2.0,0462*4C

CDRadio,182234,30.166200,db,12151,177,3,$GNGGA,102231.00,2234.22568,N,11356.25151,E,5,10,1.23,66.4,M,-2.7,M,2.0,0462*4A

CDRadio,182235,30.163533,db,12174,177,3,$GNGGA,102232.00,2234.22567,N,11356.25145,E,5,10,1.23,66.2,M,-2.7,M,2.0,0462*45

CDRadio,182236,29.076273,db,12197,177,3,$GNGGA,102233.00,2234.22564,N,11356.25140,E,5,10,1.23,66.0,M,-2.7,M,2.0,0462*40

CDRadio,182237,27.364600,db,12197,177,3,$GNGGA,102234.00,2234.22562,N,11356.25136,E,5,10,1.23,65.8,M,-2.7,M,2.0,0462*4B

CDRadio,182238,28.596736,db,12220,177,3,$GNGGA,102235.00,2234.22561,N,11356.25132,E,5,10,1.23,65.7,M,-2.7,M,2.0,0462*42

CDRadio,182239,30.168201,db,12243,177,3,$GNGGA,102236.00,2234.22560,N,11356.25129,E,5,10,1.23,65.5,M,-2.7,M,2.0,0462*48

CDRadio,182240,31.223440,db,12266,177,3,$GNGGA,102237.00,2234.22559,N,11356.25124,E,5,10,1.23,65.3,M,-2.7,M,3.0,0462*49

CDRadio,182241,28.497559,db,12289,177,3,$GNGGA,102238.00,2234.22557,N,11356.25120,E,5,10,1.23,65.0,M,-2.7,M,2.0,0462*4E

CDRadio,182242,32.423771,db,12289,177,3,$GNGGA,102239.00,2234.22553,N,11356.25116,E,5,10,1.23,64.8,M,-2.7,M,2.0,0462*47

CDRadio,182243,30.312624,db,12312,177,3,$GNGGA,102240.00,2234.22548,N,11356.25112,E,5,10,1.23,64.6,M,-2.7,M,2.0,0462*49

CDRadio,182244,29.409788,db,12335,177,3,$GNGGA,102241.00,2234.22546,N,11356.25109,E,5,10,1.23,64.5,M,-2.7,M,2.0,0462*4F

CDRadio,182245,32.052436,db,12358,177,3,$GNGGA,102242.00,2234.22543,N,11356.25106,E,5,10,1.23,64.3,M,-2.7,M,2.0,0462*40

CDRadio,182246,30.696345,db,12381,177,3,$GNGGA,102243.00,2234.22540,N,11356.25100,E,5,10,1.23,64.1,M,-2.7,M,2.0,0462*46

CDRadio,182247,29.924322,db,12404,177,3,$GNGGA,102244.00,2234.22534,N,11356.25096,E,5,10,1.23,63.9,M,-2.7,M,3.0,0462*42

CDRadio,182248,28.740032,db,12427,177,3,$GNGGA,102245.00,2234.22530,N,11356.25093,E,5,10,1.23,63.7,M,-2.7,M,2.0,0462*4D

CDRadio,182249,29.935088,db,12427,177,3,$GNGGA,102246.00,2234.22525,N,11356.25091,E,5,10,1.23,63.5,M,-2.7,M,2.0,0462*4A

CDRadio,182250,27.926402,db,12450,177,3,$GNGGA,102247.00,2234.22519,N,11356.25087,E,5,10,1.23,63.4,M,-2.7,M,2.0,0462*42

CDRadio,182251,28.995981,db,12473,177,3,$GNGGA,102248.00,2234.22513,N,11356.25083,E,5,10,1.23,63.2,M,-2.7,M,2.0,0462*45

CDRadio,182252,29.290824,db,12496,177,3,$GNGGA,102249.00,2234.22509,N,11356.25080,E,5,10,1.23,63.0,M,-2.7,M,2.0,0462*4E

CDRadio,182253,30.532227,db,12519,177,3,$GNGGA,102250.00,2234.22506,N,11356.25076,E,5,10,1.23,62.8,M,-2.7,M,2.0,0462*49

CDRadio,182255,28.504295,db,12542,177,3,$GNGGA,102252.00,2234.22502,N,11356.25073,E,5,10,1.23,62.6,M,-2.7,M,2.0,0462*44

CDRadio,182256,28.275514,db,12565,177,3,$GNGGA,102253.00,2234.22498,N,11356.25070,E,5,10,1.23,62.4,M,-2.7,M,2.0,0462*46

CDRadio,182257,30.369024,db,12588,177,3,$GNGGA,102254.00,2234.22493,N,11356.25068,E,5,10,1.23,62.3,M,-2.7,M,3.0,0462*45

CDRadio,182258,30.393757,db,12611,177,3,$GNGGA,102255.00,2234.22489,N,11356.25066,E,5,10,1.23,62.2,M,-2.7,M,2.0,0462*41

CDRadio,182259,30.769924,db,12634,177,3,$GNGGA,102256.00,2234.22483,N,11356.25064,E,5,10,1.23,62.0,M,-2.7,M,2.0,0462*48

CDRadio,182301,26.898499,db,12680,177,3,$GNGGA,102258.00,2234.22472,N,11356.25059,E,5,10,1.23,61.7,M,-2.7,M,2.0,0462*42

CDRadio,182302,30.340679,db,12680,177,3,$GNGGA,102259.00,2234.22467,N,11356.25056,E,5,10,1.23,61.6,M,-2.7,M,2.0,0462*49

CDRadio,182303,30.014952,db,12703,177,3,$GNGGA,102300.00,2234.22463,N,11356.25054,E,5,10,1.23,61.5,M,-2.7,M,2.0,0462*41

CDRadio,182303,30.014952,db,12703,177,3,$GNGGA,102300.00,2234.22463,N,11356.25054,E,5,10,1.23,61.5,M,-2.7,M,2.0,0462*41

CDRadio,182304,29.682835,db,12726,177,3,$GNGGA,102301.00,2234.22458,N,11356.25053,E,5,10,1.23,61.4,M,-2.7,M,2.0,0462*4E

CDRadio,182305,28.354705,db,12749,177,3,$GNGGA,102302.00,2234.22453,N,11356.25049,E,5,10,1.23,61.2,M,-2.7,M,2.0,0462*4B

CDRadio,182306,29.188388,db,12772,177,3,$GNGGA,102303.00,2234.22451,N,11356.25044,E,5,10,1.23,61.0,M,-2.7,M,2.0,0462*47

CDRadio,182307,30.590406,db,12795,177,3,$GNGGA,102304.00,2234.22449,N,11356.25040,E,5,09,1.23,60.8,M,-2.7,M,2.0,0462*4C

CDRadio,182308,29.820591,db,12795,177,3,$GNGGA,102305.00,2234.22448,N,11356.25039,E,5,09,1.23,60.7,M,-2.7,M,2.0,0462*4D

CDRadio,182309,33.644021,db,12818,177,3,$GNGGA,102306.00,2234.22445,N,11356.25037,E,5,09,1.28,60.6,M,-2.7,M,2.0,0462*47

CDRadio,182310,29.975753,db,12841,177,3,$GNGGA,102307.00,2234.22443,N,11356.25037,E,5,10,1.05,60.6,M,-2.7,M,2.0,0462*47

CDRadio,182311,28.786865,db,12864,177,3,$GNGGA,102308.00,2234.22440,N,11356.25036,E,5,10,1.05,60.5,M,-2.7,M,2.0,0462*49

CDRadio,182312,32.373194,db,12887,177,3,$GNGGA,102309.00,2234.22438,N,11356.25035,E,5,10,1.28,60.4,M,-2.7,M,3.0,0462*4B

CDRadio,182313,32.156647,db,12910,177,3,$GNGGA,102310.00,2234.22436,N,11356.25035,E,5,10,1.05,60.4,M,-2.7,M,2.0,0462*43

CDRadio,182314,29.630448,db,12933,177,3,$GNGGA,102311.00,2234.22434,N,11356.25038,E,5,10,1.05,60.5,M,-2.7,M,2.0,0462*4C

CDRadio,182315,29.467407,db,12933,177,3,$GNGGA,102312.00,2234.22421,N,11356.25046,E,5,10,1.27,60.4,M,-2.7,M,2.0,0462*43

CDRadio,182316,31.400794,db,12956,177,3,$GNGGA,102313.00,2234.22416,N,11356.25051,E,5,10,1.01,60.5,M,-2.7,M,2.0,0462*45

CDRadio,182318,28.168407,db,13002,177,3,$GNGGA,102315.00,2234.22410,N,11356.25047,E,5,10,1.05,60.3,M,-2.7,M,2.0,0462*40

CDRadio,182319,30.003085,db,13025,177,3,$GNGGA,102316.00,2234.22413,N,11356.25036,E,2,10,1.05,60.5,M,-2.7,M,2.0,0462*47

CDRadio,182320,32.598444,db,13048,177,3,$GNGGA,102317.00,2234.22416,N,11356.25029,E,2,10,1.05,60.4,M,-2.7,M,2.0,0462*4C

CDRadio,182321,32.580450,db,13048,177,3,$GNGGA,102318.00,2234.22419,N,11356.25026,E,5,10,1.01,60.3,M,-2.7,M,2.0,0462*47

CDRadio,182322,28.635398,db,13071,177,3,$GNGGA,102319.00,2234.22410,N,11356.25030,E,5,09,1.05,60.3,M,-2.7,M,2.0,0462*44

CDRadio,182323,29.401844,db,13094,177,3,$GNGGA,102320.00,2234.22408,N,11356.25033,E,5,09,1.05,60.4,M,-2.7,M,2.0,0462*43

CDRadio,182324,28.925465,db,13117,177,3,$GNGGA,102321.00,2234.22411,N,11356.25028,E,5,09,1.05,60.2,M,-2.7,M,2.0,0462*46

CDRadio,182325,30.196855,db,13140,177,3,$GNGGA,102322.00,2234.22405,N,11356.25032,E,5,09,1.05,60.3,M,-2.7,M,2.0,0462*4A

CDRadio,182326,29.130635,db,13163,177,3,$GNGGA,102323.00,2234.22406,N,11356.25030,E,5,09,1.05,60.2,M,-2.7,M,2.0,0462*4B

CDRadio,182327,32.665040,db,13163,177,3,$GNGGA,102324.00,2234.22420,N,11356.25024,E,5,09,1.05,60.0,M,-2.7,M,2.0,0462*4F

CDRadio,182328,31.808454,db,13186,177,3,$GNGGA,102325.00,2234.22414,N,11356.25025,E,5,09,1.05,60.0,M,-2.7,M,2.0,0462*48

CDRadio,182329,27.610988,db,13209,177,3,$GNGGA,102326.00,2234.22414,N,11356.25026,E,5,09,1.05,60.0,M,-2.7,M,2.0,0462*48

CDRadio,182330,29.583106,db,13232,177,3,$GNGGA,102327.00,2234.22413,N,11356.25028,E,5,09,1.05,60.1,M,-2.7,M,2.0,0462*41

CDRadio,182331,29.666449,db,13255,177,3,$GNGGA,102328.00,2234.22416,N,11356.25033,E,5,09,1.05,60.4,M,-2.7,M,3.0,0462*45

CDRadio,182332,28.971568,db,13278,177,3,$GNGGA,102329.00,2234.22416,N,11356.25036,E,5,09,1.05,60.5,M,-2.7,M,2.0,0462*41

CDRadio,182333,32.923382,db,13301,177,3,$GNGGA,102330.00,2234.22412,N,11356.25043,E,5,09,1.05,60.7,M,-2.7,M,2.0,0462*4D

CDRadio,182336,29.207795,db,13347,177,3,$GNGGA,102333.00,2234.22410,N,11356.25040,E,5,09,1.05,60.7,M,-2.7,M,2.0,0462*4F

CDRadio,182337,30.317853,db,13370,177,3,$GNGGA,102334.00,2234.22416,N,11356.25039,E,5,09,1.05,60.6,M,-2.7,M,2.0,0462*41

CDRadio,182338,28.745127,db,13393,177,3,$GNGGA,102335.00,2234.22415,N,11356.25038,E,5,09,1.05,60.5,M,-2.7,M,3.0,0462*40

CDRadio,182339,29.972453,db,13416,177,3,$GNGGA,102336.00,2234.22409,N,11356.25036,E,5,09,1.05,60.3,M,-2.7,M,2.0,0462*47

CDRadio,182340,26.850988,db,13416,177,3,$GNGGA,102337.00,2234.22408,N,11356.25035,E,5,09,1.05,60.1,M,-2.7,M,2.0,0462*46

CDRadio,182341,28.309663,db,13439,177,3,$GNGGA,102338.00,2234.22414,N,11356.25033,E,5,09,1.05,60.0,M,-2.7,M,2.0,0462*43

CDRadio,182342,29.926344,db,13462,177,3,$GNGGA,102339.00,2234.22415,N,11356.25033,E,5,09,1.27,60.0,M,-2.7,M,2.0,0462*43

CDRadio,182343,28.785092,db,13485,177,3,$GNGGA,102340.00,2234.22413,N,11356.25037,E,5,09,1.05,60.2,M,-2.7,M,2.0,0462*4D

CDRadio,182344,29.642296,db,13508,177,3,$GNGGA,102341.00,2234.22416,N,11356.25036,E,5,09,1.05,60.2,M,-2.7,M,2.0,0462*48

CDRadio,182345,28.928357,db,13531,177,3,$GNGGA,102342.00,2234.22415,N,11356.25037,E,5,08,1.27,60.3,M,-2.7,M,2.0,0462*49

CDRadio,182346,30.295684,db,13531,177,3,$GNGGA,102343.00,2234.22414,N,11356.25036,E,5,08,1.27,60.3,M,-2.7,M,2.0,0462*48

CDRadio,182348,27.488001,db,13577,177,3,$GNGGA,102345.00,2234.22410,N,11356.25038,E,5,08,1.27,60.3,M,-2.7,M,2.0,0462*44

CDRadio,182349,28.027265,db,13600,177,3,$GNGGA,102346.00,2234.22408,N,11356.25040,E,5,08,1.27,60.4,M,-2.7,M,2.0,0462*46

CDRadio,182350,29.119499,db,13623,177,3,$GNGGA,102347.00,2234.22411,N,11356.25041,E,5,08,1.27,60.4,M,-2.7,M,2.0,0462*4E

CDRadio,182351,29.632108,db,13646,177,3,$GNGGA,102348.00,2234.22412,N,11356.25040,E,5,08,1.27,60.4,M,-2.7,M,3.0,0462*42

CDRadio,182352,30.468259,db,13669,177,3,$GNGGA,102349.00,2234.22412,N,11356.25042,E,5,08,1.27,60.4,M,-2.7,M,2.0,0462*40

CDRadio,182353,27.017266,db,13692,177,3,$GNGGA,102350.00,2234.22409,N,11356.25048,E,5,08,1.27,60.7,M,-2.7,M,2.0,0462*4B

CDRadio,182354,32.302768,db,13692,177,3,$GNGGA,102351.00,2234.22410,N,11356.25048,E,5,08,1.27,60.7,M,-2.7,M,2.0,0462*42

CDRadio,182355,32.309946,db,13715,177,3,$GNGGA,102352.00,2234.22408,N,11356.25048,E,5,08,1.27,60.7,M,-2.7,M,2.0,0462*48

CDRadio,182356,29.107648,db,13738,177,3,$GNGGA,102353.00,2234.22408,N,11356.25046,E,5,08,1.27,60.6,M,-2.7,M,2.0,0462*46

CDRadio,182357,29.394518,db,13761,177,3,$GNGGA,102354.00,2234.22407,N,11356.25046,E,5,08,1.27,60.6,M,-2.7,M,2.0,0462*4E

CDRadio,182359,32.385747,db,13807,177,3,$GNGGA,102356.00,2234.22409,N,11356.25047,E,5,08,1.27,60.6,M,-2.7,M,2.0,0462*43

CDRadio,182400,30.320488,db,13807,177,3,$GNGGA,102357.00,2234.22409,N,11356.25045,E,5,08,1.27,60.6,M,-2.7,M,2.0,0462*40

CDRadio,182401,27.092975,db,13830,177,3,$GNGGA,102358.00,2234.22411,N,11356.25041,E,5,08,1.27,60.5,M,-2.7,M,2.0,0462*41

CDRadio,182403,29.343159,db,13876,177,3,$GNGGA,102400.00,2234.22401,N,11356.25050,E,5,08,1.27,60.7,M,-2.7,M,2.0,0462*48

CDRadio,182404,28.691595,db,13899,177,3,$GNGGA,102401.00,2234.22402,N,11356.25049,E,5,08,1.27,60.8,M,-2.7,M,2.0,0462*4D

CDRadio,182405,28.496685,db,13922,177,3,$GNGGA,102402.00,2234.22401,N,11356.25046,E,5,08,1.27,60.7,M,-2.7,M,2.0,0462*4D

CDRadio,182406,32.098772,db,13922,177,3,$GNGGA,102403.00,2234.22404,N,11356.25043,E,5,08,1.27,60.7,M,-2.7,M,3.0,0462*4D

CDRadio,182407,30.193942,db,13945,177,3,$GNGGA,102404.00,2234.22405,N,11356.25043,E,5,08,1.27,60.7,M,-2.7,M,2.0,0462*4A

CDRadio,182408,29.395380,db,13968,177,3,$GNGGA,102405.00,2234.22405,N,11356.25044,E,5,08,1.27,60.7,M,-2.7,M,2.0,0462*4C

CDRadio,182409,27.867459,db,13991,177,3,$GNGGA,102406.00,2234.22404,N,11356.25046,E,5,08,1.27,60.8,M,-2.7,M,2.0,0462*43

CDRadio,182410,27.077236,db,14014,177,3,$GNGGA,102407.00,2234.22405,N,11356.25045,E,5,08,1.27,60.7,M,-2.7,M,2.0,0462*4F

CDRadio,182412,29.103064,db,14037,177,3,$GNGGA,102409.00,2234.22405,N,11356.25046,E,5,08,1.27,60.7,M,-2.7,M,2.0,0462*42

CDRadio,182413,29.294975,db,14060,177,3,$GNGGA,102410.00,2234.22405,N,11356.25046,E,5,08,1.27,60.7,M,-2.7,M,2.0,0462*4A

CDRadio,182414,29.328612,db,14083,177,3,$GNGGA,102411.00,2234.22405,N,11356.25045,E,5,08,1.27,60.7,M,-2.7,M,2.0,0462*48

CDRadio,182415,29.025552,db,14106,177,3,$GNGGA,102412.00,2234.22406,N,11356.25042,E,5,08,1.27,60.7,M,-2.7,M,2.0,0462*4F

CDRadio,182418,28.759129,db,14175,177,3,$GNGGA,102415.00,2234.22408,N,11356.25040,E,5,08,1.27,60.7,M,-2.7,M,2.0,0462*44

CDRadio,182420,28.678627,db,14198,177,3,$GNGGA,102417.00,2234.22408,N,11356.25039,E,5,08,1.27,60.7,M,-2.7,M,2.0,0462*48

CDRadio,182421,30.052082,db,14221,177,3,$GNGGA,102418.00,2234.22408,N,11356.25038,E,5,08,1.27,60.7,M,-2.7,M,2.0,0462*46

CDRadio,182423,27.911379,db,14267,177,3,$GNGGA,102420.00,2234.22408,N,11356.25037,E,5,08,1.27,60.7,M,-2.7,M,2.0,0462*42

CDRadio,182424,28.105762,db,14290,177,3,$GNGGA,102421.00,2234.22408,N,11356.25035,E,5,08,1.27,60.7,M,-2.7,M,2.0,0462*41

CDRadio,182425,27.167933,db,14290,177,3,$GNGGA,102422.00,2234.22408,N,11356.25033,E,5,07,1.37,60.7,M,-2.7,M,2.0,0462*4A

CDRadio,182426,28.964118,db,14313,177,3,$GNGGA,102423.00,2234.22409,N,11356.25030,E,5,07,1.37,60.6,M,-2.7,M,2.0,0462*48

CDRadio,182427,29.961104,db,14336,177,3,$GNGGA,102424.00,2234.22410,N,11356.25027,E,5,07,1.37,60.6,M,-2.7,M,2.0,0462*41

CDRadio,182428,29.180119,db,14359,177,3,$GNGGA,102425.00,2234.22409,N,11356.25026,E,5,07,1.37,60.6,M,-2.7,M,2.0,0462*49

CDRadio,182429,27.101048,db,14382,177,3,$GNGGA,102426.00,2234.22409,N,11356.25025,E,5,07,1.37,60.5,M,-2.7,M,2.0,0462*4A

CDRadio,182430,28.538252,db,14405,177,3,$GNGGA,102427.00,2234.22410,N,11356.25023,E,5,07,1.37,60.5,M,-2.7,M,2.0,0462*45

CDRadio,182432,30.089877,db,14428,177,3,$GNGGA,102429.00,2234.22410,N,11356.25020,E,5,07,1.37,60.4,M,-2.7,M,3.0,0462*48

CDRadio,182433,29.337487,db,14451,177,3,$GNGGA,102430.00,2234.22411,N,11356.25019,E,5,07,1.37,60.4,M,-2.7,M,2.0,0462*4A

CDRadio,182434,27.676807,db,14474,177,3,$GNGGA,102431.00,2234.22412,N,11356.25016,E,5,07,1.37,60.3,M,-2.7,M,2.0,0462*40

CDRadio,182435,27.792331,db,14497,177,3,$GNGGA,102432.00,2234.22412,N,11356.25014,E,5,07,1.37,60.3,M,-2.7,M,2.0,0462*41

CDRadio,182436,32.688874,db,14520,177,3,$GNGGA,102433.00,2234.22413,N,11356.25012,E,5,07,1.37,60.3,M,-2.7,M,2.0,0462*47

CDRadio,182438,28.499534,db,14543,177,3,$GNGGA,102435.00,2234.22414,N,11356.25008,E,5,07,1.37,60.2,M,-2.7,M,2.0,0462*4C

CDRadio,182439,28.649092,db,14566,177,3,$GNGGA,102436.00,2234.22414,N,11356.25007,E,5,07,1.37,60.1,M,-2.7,M,2.0,0462*43

CDRadio,182441,28.692423,db,14612,177,3,$GNGGA,102438.00,2234.22415,N,11356.25003,E,5,07,1.37,60.1,M,-2.7,M,2.0,0462*48

CDRadio,182442,28.231005,db,14635,177,3,$GNGGA,102439.00,2234.22416,N,11356.25001,E,5,07,1.37,60.0,M,-2.7,M,2.0,0462*49

CDRadio,182443,28.705876,db,14658,177,3,$GNGGA,102440.00,2234.22415,N,11356.25000,E,5,07,1.37,60.0,M,-2.7,M,2.0,0462*45

CDRadio,182444,31.081790,db,14658,177,3,$GNGGA,102441.00,2234.22414,N,11356.24998,E,5,07,1.37,60.0,M,-2.7,M,2.0,0462*4C

CDRadio,182445,29.445028,db,14681,177,3,$GNGGA,102442.00,2234.22415,N,11356.24996,E,5,07,1.37,59.9,M,-2.7,M,2.0,0462*43

CDRadio,182447,28.653771,db,14727,177,3,$GNGGA,102444.00,2234.22417,N,11356.24993,E,5,07,1.37,59.8,M,-2.7,M,2.0,0462*43

CDRadio,182448,30.417147,db,14750,177,3,$GNGGA,102445.00,2234.22418,N,11356.24991,E,5,07,1.37,59.8,M,-2.7,M,3.0,0462*4E

CDRadio,182449,27.183810,db,14773,177,3,$GNGGA,102446.00,2234.22417,N,11356.24990,E,5,07,1.37,59.8,M,-2.7,M,2.0,0462*42

CDRadio,182450,30.517958,db,14796,177,3,$GNGGA,102447.00,2234.22417,N,11356.24988,E,5,07,1.37,59.7,M,-2.7,M,2.0,0462*45

CDRadio,182451,28.846919,db,14796,177,3,$GNGGA,102448.00,2234.22417,N,11356.24988,E,5,07,1.37,59.7,M,-2.7,M,2.0,0462*4A

CDRadio,182452,29.903895,db,14819,177,3,$GNGGA,102449.00,2234.22417,N,11356.24986,E,5,07,1.37,59.7,M,-2.7,M,2.0,0462*45

CDRadio,182453,29.447881,db,14842,177,3,$GNGGA,102450.00,2234.22417,N,11356.24986,E,5,07,1.37,59.7,M,-2.7,M,2.0,0462*4D

CDRadio,182454,34.240780,db,14865,177,3,$GNGGA,102451.00,2234.22418,N,11356.24984,E,5,07,1.37,59.6,M,-2.7,M,2.0,0462*40

CDRadio,182455,34.013004,db,14888,177,3,$GNGGA,102452.00,2234.22418,N,11356.24982,E,5,07,1.37,59.6,M,-2.7,M,2.0,0462*45

CDRadio,182455,34.013004,db,14888,177,3,$GNGGA,102452.00,2234.22418,N,11356.24982,E,5,07,1.37,59.6,M,-2.7,M,2.0,0462*45

CDRadio,182456,29.195647,db,14911,177,3,$GNGGA,102453.00,2234.22419,N,11356.24980,E,5,07,1.37,59.6,M,-2.7,M,2.0,0462*47

CDRadio,182457,31.032972,db,14934,177,3,$GNGGA,102454.00,2234.22419,N,11356.24978,E,5,07,1.37,59.5,M,-2.7,M,2.0,0462*44

CDRadio,182458,33.837023,db,14934,177,3,$GNGGA,102455.00,2234.22420,N,11356.24977,E,5,07,1.37,59.5,M,-2.7,M,2.0,0462*40

CDRadio,182459,33.937943,db,14957,177,3,$GNGGA,102456.00,2234.22419,N,11356.24976,E,5,07,1.37,59.5,M,-2.7,M,2.0,0462*48

CDRadio,182500,29.249881,db,14980,177,3,$GNGGA,102457.00,2234.22418,N,11356.24975,E,5,07,1.37,59.5,M,-2.7,M,2.0,0462*4B

CDRadio,182501,29.940438,db,15003,177,3,$GNGGA,102458.00,2234.22418,N,11356.24975,E,5,07,1.37,59.4,M,-2.7,M,2.0,0462*45

CDRadio,182502,28.544760,db,15026,177,3,$GNGGA,102459.00,2234.22419,N,11356.24974,E,5,07,1.37,59.4,M,-2.7,M,2.0,0462*44

CDRadio,182503,32.348142,db,15026,177,3,$GNGGA,102500.00,2234.22419,N,11356.24975,E,5,07,1.37,59.4,M,-2.7,M,2.0,0462*48

CDRadio,182505,26.827103,db,15072,177,3,$GNGGA,102502.00,2234.22419,N,11356.24972,E,5,07,1.37,59.4,M,-2.7,M,2.0,0462*4D

CDRadio,182507,30.252783,db,15118,177,3,$GNGGA,102504.00,2234.22422,N,11356.24969,E,5,07,1.37,59.3,M,-2.7,M,2.0,0462*4E

